[{"name":"메디피아약국","addr":"(06267) 서울 강남구 강남대로 242 1층 메디피아약국","tel":"02-3463-1547","open":"09:00 ~ 22:00","sido":"seoul","sigungu":"kangnam_gu","lng":"127.034082861809","lat":"37.4853735070328"},{"name":"큰길약국","addr":"(06241) 서울 강남구 강남대로 370 지하1층","tel":"02-553-1517","open":"09:00 ~ 23:30","sido":"seoul","sigungu":"kangnam_gu","lng":"127.029219161362","lat":"37.4958597444988"},{"name":"강남미약국","addr":"(06232) 서울 강남구 강남대로 376 강남8258빌딩 1층1호","tel":"02-501-2105","open":"09:30 ~ 21:00","sido":"seoul","sigungu":"kangnam_gu","lng":"127.028772413762","lat":"37.4965660631811"},{"name":"강남씨티약국","addr":"(06129) 서울 강남구 강남대로 416 창림빌딩 1층 강남씨티약국","tel":"02-503-1608","open":"\n\t\t\t\t\t\t\t\t전화 확인\n\t\t\t\t\t\t\t\t","sido":"seoul","sigungu":"kangnam_gu","lng":"127.027157607819","lat":"37.4997988058128"},{"name":"제일그랜드약국","addr":"(06120) 서울 강남구 강남대로 478 제우빌딩1층","tel":"02-546-0093","open":"06:00 ~ 익일06:00","sido":"seoul","sigungu":"kangnam_gu","lng":"127.024669466556","lat":"37.5051062753525"},{"name":"노바약국","addr":"(06118) 서울 강남구 강남대로118길 51 103호 노바약국","tel":"02-542-3696","open":"14:00 ~ 익일00:00","sido":"seoul","sigungu":"kangnam_gu","lng":"127.027220116866","lat":"37.507505812621"},{"name":"기쁨약국","addr":"(06308) 서울 강남구 개포로 228 1층","tel":"02-574-1087","open":"08:30 ~ 22:30","sido":"seoul","sigungu":"kangnam_gu","lng":"127.047717596057","lat":"37.4786645607887"},{"name":"생생온누리약국","addr":"(06025) 서울 강남구 논현로 842 1층","tel":"070-8888-3380","open":"09:00 ~ 22:00","sido":"seoul","sigungu":"kangnam_gu","lng":"127.028730922791","lat":"37.5240379714226"},{"name":"케이팜약국","addr":"(06207) 서울 강남구 도곡로 405 아르누보2 107호","tel":"02-501-5779","open":"09:30 ~ 20:30","sido":"seoul","sigungu":"kangnam_gu","lng":"127.054668203745","lat":"37.4973689050395"},{"name":"강남백세약국","addr":"(06279) 서울 강남구 도곡로 448 강남백세약국","tel":"02-566-3138","open":"08:00 ~ 19:30","sido":"seoul","sigungu":"kangnam_gu","lng":"127.059547645759","lat":"37.498109786403"},{"name":"에이엔씨약국","addr":"(06047) 서울 강남구 도산대로 204 1층 에이엔씨약국","tel":"02-544-8459","open":"09:00 ~ 21:00","sido":"seoul","sigungu":"kangnam_gu"},{"name":"아이조은약국","addr":"(06085) 서울 강남구 삼성로 620 2층","tel":"02-3445-9151","open":"09:00 ~ 21:00","sido":"seoul","sigungu":"kangnam_gu","lng":"127.05262341302","lat":"37.5149654717602"},{"name":"웰그린약국","addr":"(06218) 서울 강남구 선릉로 311 한티빌딩 1층 103호","tel":"02-501-1600","open":"09:00 ~ 21:00","sido":"seoul","sigungu":"kangnam_gu","lng":"127.052077839969","lat":"37.4973342152953"},{"name":"논현필리아약국","addr":"(06100) 서울 강남구 선릉로 641 101호","tel":"02-540-7582","open":"09:00 ~ 22:00","sido":"seoul","sigungu":"kangnam_gu","lng":"127.042287442465","lat":"37.5137539900082"},{"name":"인선약국","addr":"(06055) 서울 강남구 선릉로 755 진성빌딩 1층 인선약국","tel":"02-542-1954","open":"08:00 ~ 21:30","sido":"seoul","sigungu":"kangnam_gu","lng":"127.039180326759","lat":"37.5220250107345"},{"name":"금강약국","addr":"(06001) 서울 강남구 압구정로 151 1동 107호","tel":"02-544-5527","open":"09:00 ~ 20:00","sido":"seoul","sigungu":"kangnam_gu","lng":"127.024454982256","lat":"37.5267858196588"},{"name":"신사수약국","addr":"(06030) 서울 강남구 압구정로28길 28 1층 신사수약국","tel":"010-3759-8032","open":"09:00 ~ 21:00","sido":"seoul","sigungu":"kangnam_gu","lng":"127.027513165818","lat":"37.5247718575064"},{"name":"압구정 예주약국","addr":"(06005) 서울 강남구 압구정로29길 65 B1.","tel":"02-545-3819","open":"09:00 ~ 22:30","sido":"seoul","sigungu":"kangnam_gu","lng":"127.027000294801","lat":"37.5318069076157"},{"name":"행복한미래약국","addr":"(06053) 서울 강남구 언주로 707 2층","tel":"02-515-3800","open":"07:30 ~ 19:00","sido":"seoul","sigungu":"kangnam_gu","lng":"127.035010848828","lat":"37.5162231391472"},{"name":"강남웰약국","addr":"(06129) 서울 강남구 역삼동 815 1층","tel":"02-6440-5656","open":"09:00 ~ 22:00","sido":"seoul","sigungu":"kangnam_gu","lng":"127.026479251459","lat":"37.5012679600261"},{"name":"아로마약국","addr":"(06225) 서울 강남구 역삼로 243 델타빌딩 1층","tel":"02-508-6064","open":"09:00 ~ 19:00","sido":"seoul","sigungu":"kangnam_gu","lng":"127.042818124268","lat":"37.4978560130607"},{"name":"아로마약국","addr":"(06225) 서울 강남구 역삼로 243 델타빌딩 1층","tel":"02-508-6064","open":"09:00 ~ 19:00","sido":"seoul","sigungu":"kangnam_gu","lng":"127.042818124268","lat":"37.4978560130607"},{"name":"팜엑스약국","addr":"(06164) 서울 강남구 영동대로 513 코엑스몰 h112","tel":"02-6002-3060","open":"09:00 ~ 21:00","sido":"seoul","sigungu":"kangnam_gu","lng":"127.059159043842","lat":"37.5118239121138"},{"name":"유니팜서울약국","addr":"(06134) 서울 강남구 테헤란로 109 1층","tel":"02-556-7886","open":"09:00 ~ 22:00","sido":"seoul","sigungu":"kangnam_gu","lng":"127.028991540151","lat":"37.4988253733783"},{"name":"누리약국","addr":"(06211) 서울 강남구 테헤란로 310 3층","tel":"02-558-5887","open":"09:00 ~ 21:00","sido":"seoul","sigungu":"kangnam_gu","lng":"127.044750924563","lat":"37.5028515551762"},{"name":"365역삼역약국","addr":"(06236) 서울 강남구 테헤란로 지하 156 역사 지하상가 127호","tel":"02-557-0365","open":"08:00 ~ 22:00","sido":"seoul","sigungu":"kangnam_gu","lng":"127.036618203089","lat":"37.5007162693593"},{"name":"도심공항약국","addr":"(06164) 서울 강남구 테헤란로87길 22 2층","tel":"02-554-4906","open":"09:00 ~ 19:00","sido":"seoul","sigungu":"kangnam_gu","lng":"127.059443354483","lat":"37.5096322564759"},{"name":"강남프라자약국","addr":"(06060) 서울 강남구 학동로 323 1층 강남프라자약국","tel":"02-514-4222","open":"09:00 ~ 22:30","sido":"seoul","sigungu":"kangnam_gu","lng":"127.038340314865","lat":"37.5165729561127"},{"name":"연세팜약국","addr":"(06114) 서울 강남구 학동로4길 24 101호 연세팜약국","tel":"02-518-2338","open":"09:30 ~ 22:00","sido":"seoul","sigungu":"kangnam_gu","lng":"127.023330305397","lat":"37.5099085434556"},{"name":"세곡온누리약국","addr":"(06376) 서울 강남구 헌릉로569길 27 2층","tel":"070-8828-7963","open":"09:00 ~ 23:00","sido":"seoul","sigungu":"kangnam_gu","lng":"127.098768291246","lat":"37.466769857948"},{"name":"레이첼약국","addr":"(06123) 서울특별시 강남구 강남대로 470 808타워 502호","tel":"02-6013-9151","open":"09:30 ~ 18:30","sido":"seoul","sigungu":"kangnam_gu","lng":"127.025061202164","lat":"37.5043293460531"},{"name":"에메랄드약국","addr":"(06039) 서울특별시 강남구 도산대로 122 1층","tel":"02-3443-0991","open":"09:00 ~ 22:30","sido":"seoul","sigungu":"kangnam_gu","lng":"127.022136047241","lat":"37.5168459639768"},{"name":"2층개포약국","addr":"(06310) 서울특별시 강남구 언주로7길 6 개포자이르네상가 206호","tel":"02-574-2229","open":"08:30 ~ 19:30","sido":"seoul","sigungu":"kangnam_gu","lng":"127.055483787574","lat":"37.4785781862112"},{"name":"곰돌이약국","addr":"(06310) 서울특별시 강남구 언주로7길 6 117호(개포동 개포자이르네)","tel":"02-3462-3888","open":"09:00 ~ 20:00","sido":"seoul","sigungu":"kangnam_gu","lng":"127.055483787574","lat":"37.4785781862112"},{"name":"약사랑약국","addr":"(06150) 서울특별시 강남구 테헤란로 339 1층","tel":"02-2039-9112","open":"09:00 ~ 23:00","sido":"seoul","sigungu":"kangnam_gu","lng":"127.048597161488","lat":"37.5048110738687"},{"name":"삼성참약사약국","addr":"(06168) 서울특별시 강남구 테헤란로 505 1층 삼성참약사약국","tel":"02-555-1969","open":"08:30 ~ 19:30","sido":"seoul","sigungu":"kangnam_gu","lng":"127.057440735405","lat":"37.5075694059412"},{"name":"보리수약국","addr":"(06074) 서울특별시 강남구 학동로87길 9 ","tel":"02-542-2309","open":"14:00 ~ 20:00","sido":"seoul","sigungu":"kangnam_gu","lng":"127.051691940473","lat":"37.520386138894"},{"name":"메디팜정연약국","addr":"(06266) 서울 강남구 강남대로 256 대우양재디오빌상가 103호","tel":"02-522-5925","open":"09:00 ~ 20:30","sido":"seoul","sigungu":"kangnam_gu","lng":"127.033537582361","lat":"37.4864868587499"},{"name":"화인약국","addr":"(06241) 서울 강남구 강남대로 372 화인타워5 층","tel":"010-9492-5089","open":"08:00 ~ 20:00","sido":"seoul","sigungu":"kangnam_gu","lng":"127.029070411585","lat":"37.4960350270018"},{"name":"엠플러스약국","addr":"(06232) 서울 강남구 강남대로 378 지하1층","tel":"02-558-9799","open":"09:00 ~ 20:30","sido":"seoul","sigungu":"kangnam_gu","lng":"127.028631091799","lat":"37.4966540357615"},{"name":"코코온누리약국","addr":"(06134) 서울 강남구 강남대로 406 2층 202호","tel":"02-539-1500","open":"08:30 ~ 18:30","sido":"seoul","sigungu":"kangnam_gu","lng":"127.027622767131","lat":"37.4989401291583"},{"name":"더블유약국","addr":"(06123) 서울 강남구 강남대로 468 1층","tel":"02-557-9135","open":"09:30 ~ 20:00","sido":"seoul","sigungu":"kangnam_gu","lng":"127.025144947963","lat":"37.5041550738018"},{"name":"현온누리약국","addr":"(06044) 서울 강남구 강남대로 560 삼익전자빌딩 지하 1층","tel":"02-3446-7012","open":"09:00 ~ 19:00","sido":"seoul","sigungu":"kangnam_gu","lng":"127.021382655365","lat":"37.5119281531298"},{"name":"종원약국","addr":"(06120) 서울 강남구 강남대로118길 38 1층","tel":"02-548-8969","open":"10:00 ~ 22:00","sido":"seoul","sigungu":"kangnam_gu","lng":"127.026279060359","lat":"37.5070214652416"},{"name":"일번지약국","addr":"(06233) 서울 강남구 강남대로84길 23 1층 106호 (역삼동)","tel":"02-567-2501","open":"08:30 ~ 21:00","sido":"seoul","sigungu":"kangnam_gu","lng":"127.0303844347","lat":"37.4971298698887"},{"name":"명심약국","addr":"(06303) 서울 강남구 개포로 207 백암빌딩 1층","tel":"02-575-5867","open":"09:00 ~ 22:30","sido":"seoul","sigungu":"kangnam_gu","lng":"127.045298449448","lat":"37.4785712674263"},{"name":"소나무약국","addr":"(06307) 서울 강남구 개포로 220 104호","tel":"02-572-6409","open":"09:00 ~ 21:00","sido":"seoul","sigungu":"kangnam_gu","lng":"127.046797570716","lat":"37.4785413102826"},{"name":"성심약국","addr":"(06306) 서울 강남구 개포로 223 1층 성심약국","tel":"02-3463-0689","open":"09:00 ~ 19:00","sido":"seoul","sigungu":"kangnam_gu","lng":"127.047255591553","lat":"37.4789414464188"},{"name":"행복온누리약극","addr":"(06306) 서울 강남구 개포로 231 1층","tel":"02-574-8376","open":"09:00 ~ 21:00","sido":"seoul","sigungu":"kangnam_gu","lng":"127.047948113823","lat":"37.4790084728115"},{"name":"맑은하늘약국","addr":"(06305) 서울 강남구 개포로 265 1층 맑은하늘약국","tel":"010-4123-8795","open":"09:00 ~ 18:30","sido":"seoul","sigungu":"kangnam_gu","lng":"127.05299794567","lat":"37.4809077151366"},{"name":"개포메디칼약국","addr":"(06320) 서울 강남구 개포로 303 현대1차@상가16호","tel":"02-574-5410","open":"09:30 ~ 20:30","sido":"seoul","sigungu":"kangnam_gu","lng":"127.054393140278","lat":"37.4832803381496"},{"name":"한마음온누리약국","addr":"(06329) 서울 강남구 개포로 504 106호","tel":"02-4457-5823","open":"09:00 ~ 19:00","sido":"seoul","sigungu":"kangnam_gu","lng":"127.067186912363","lat":"37.4890546234463"},{"name":"솔약국","addr":"(06335) 서울 강남구 개포로 615 101호 석탑프라자","tel":"02-2226-9828","open":"09:30 ~ 21:30","sido":"seoul","sigungu":"kangnam_gu","lng":"127.075584863879","lat":"37.4926581736143"},{"name":"솔잎약국","addr":"(06335) 서울 강남구 개포로 615 석탑프라자 3층 308-1호 솔잎약국","tel":"02-445-8928","open":"08:00 ~ 20:00","sido":"seoul","sigungu":"kangnam_gu","lng":"127.075584863879","lat":"37.4926581736143"},{"name":"삼우약국","addr":"(06329) 서울 강남구 개포로82길 11 101호","tel":"02-3411-0841","open":"09:00 ~ 20:00","sido":"seoul","sigungu":"kangnam_gu","lng":"127.067443820505","lat":"37.4885582921416"},{"name":"튼튼약국","addr":"(06362) 서울 강남구 광평로 196 202호","tel":"02-451-9111","open":"09:00 ~ 18:00","sido":"seoul","sigungu":"kangnam_gu","lng":"127.094271408288","lat":"37.4840043478689"},{"name":"삼성약국","addr":"(06354) 서울 강남구 광평로19길 10 까치마을아파트 상가 101호 삼성약국","tel":"02-451-7281","open":"09:00 ~ 21:30","sido":"seoul","sigungu":"kangnam_gu","lng":"127.086601738647","lat":"37.485485349127"},{"name":"에스엠피약국","addr":"(06355) 서울 강남구 광평로19길 15 목련상가110호","tel":"02-2226-1141","open":"09:00 ~ 19:00","sido":"seoul","sigungu":"kangnam_gu","lng":"127.084797907539","lat":"37.485530536641"},{"name":"국송약국","addr":"(06347) 서울 강남구 광평로51길 49 수서주공야파트 상가108호","tel":"02-459-1445","open":"09:00 ~ 21:30","sido":"seoul","sigungu":"kangnam_gu","lng":"127.099765336108","lat":"37.4921394490477"},{"name":"수서옵티마약국","addr":"(06349) 서울 강남구 광평로51길 8 108호","tel":"02-3412-7430","open":"09:00 ~ 21:00","sido":"seoul","sigungu":"kangnam_gu","lng":"127.102487846211","lat":"37.488369646965"},{"name":"대치메디칼약국","addr":"(06280) 서울 강남구 남부순환로 2935 대치프라자 빌딩 1층","tel":"02-569-1137","open":"09:00 ~ 19:00","sido":"seoul","sigungu":"kangnam_gu","lng":"127.061334443036","lat":"37.4939940652114"},{"name":"메타팜약국","addr":"(06280) 서울 강남구 남부순환로 2941 101호","tel":"02-566-2268","open":"08:30 ~ 20:30","sido":"seoul","sigungu":"kangnam_gu","lng":"127.061934331534","lat":"37.4942633335042"},{"name":"스토리약국","addr":"(06266) 서울 강남구 남부순환로359길 27 1층","tel":"02-6401-9002","open":"09:00 ~ 익일00:00","sido":"seoul","sigungu":"kangnam_gu","lng":"127.035898932302","lat":"37.4865116633857"},{"name":"해맑은약국","addr":"(06268) 서울 강남구 남부순환로363길 13 해맑은약국","tel":"02-571-0029","open":"09:00 ~ 22:00","sido":"seoul","sigungu":"kangnam_gu","lng":"127.037699467091","lat":"37.4861006032548"},{"name":"소화약국","addr":"(06268) 서울 강남구 남부순환로363길 17 소화약국","tel":"02-3463-1500","open":"08:30 ~ 22:00","sido":"seoul","sigungu":"kangnam_gu","lng":"127.037746075205","lat":"37.4863726928436"},{"name":"노벨약국","addr":"(06059) 서울 강남구 논현동 111-13 노벨빌딩 1층 노벨약국","tel":"02-544-5070","open":"09:00 ~ 19:00","sido":"seoul","sigungu":"kangnam_gu","lng":"127.040265716437","lat":"37.5179805837844"},{"name":"갤러리약국","addr":"(06115) 서울 강남구 논현동 158 갤러리약국","tel":"02-6227-5578","open":"09:00 ~ 22:30","sido":"seoul","sigungu":"kangnam_gu","lng":"127.02725421078","lat":"37.5101334950142"},{"name":"장약국","addr":"(06104) 서울 강남구 논현동 209 장약국","tel":"070-8808-8547","open":"08:30 ~ 20:30","sido":"seoul","sigungu":"kangnam_gu","lng":"127.033332466324","lat":"37.5144527919652"},{"name":"포인트약국","addr":"(06038) 서울 강남구 논현동 3-1 롯데시네마 1층 포인트약국","tel":"02-547-3196","open":"10:30 ~ 11:00","sido":"seoul","sigungu":"kangnam_gu","lng":"127.021727990022","lat":"37.5166690826502"},{"name":"역삼이화약국","addr":"(06227) 서울 강남구 논현로 340 정도빌정도빌딩정도빌딩1층약국","tel":"02-3288-8620","open":"08:30 ~ 21:00","sido":"seoul","sigungu":"kangnam_gu","lng":"127.039630476234","lat":"37.4957744487635"},{"name":"신혜성약국","addr":"(06247) 서울 강남구 논현로 409 백남빌딩 1층 신혜성약국","tel":"02-558-6338","open":"08:30 ~ 20:00","sido":"seoul","sigungu":"kangnam_gu","lng":"127.038595809797","lat":"37.4965215456439"},{"name":"참좋은선약국","addr":"(06132) 서울 강남구 논현로 507 성지하이츠3차 지층 7호","tel":"02-3453-3501","open":"09:00 ~ 19:30","sido":"seoul","sigungu":"kangnam_gu","lng":"127.036157208818","lat":"37.5015784938059"},{"name":"강남세계로약국","addr":"(06312) 서울 강남구 논현로 52 1층","tel":"02-572-2720","open":"09:00 ~ 21:30","sido":"seoul","sigungu":"kangnam_gu","lng":"127.047579624196","lat":"37.4752105061392"},{"name":"역삼다인약국","addr":"(06131) 서울 강남구 논현로 521-3 역삼다인약국","tel":"02-3453-3589","open":"09:30 ~ 19:00","sido":"seoul","sigungu":"kangnam_gu","lng":"127.035639984072","lat":"37.5028902450379"},{"name":"파낙스약국","addr":"(06117) 서울 강남구 논현로 629 1층 파낙스 약국","tel":"02-518-8766","open":"09:00 ~ 19:00","sido":"seoul","sigungu":"kangnam_gu","lng":"127.032415921512","lat":"37.5097383621776"},{"name":"온정약국","addr":"(06106) 서울 강남구 논현로 648 1층","tel":"02-3446-2147","open":"08:30 ~ 18:30","sido":"seoul","sigungu":"kangnam_gu","lng":"127.032276584624","lat":"37.5115947398167"},{"name":"비타민약국","addr":"(06031) 서울 강남구 논현로 839 3층","tel":"02-2668-1805","open":"09:00 ~ 18:30","sido":"seoul","sigungu":"kangnam_gu","lng":"127.027941955388","lat":"37.5236610911879"},{"name":"하늘약국","addr":"(06031) 서울 강남구 논현로 841 1층 111호 하늘약국","tel":"02-549-9119","open":"09:00 ~ 20:00","sido":"seoul","sigungu":"kangnam_gu","lng":"127.027758806248","lat":"37.5239684663137"},{"name":"우창약국","addr":"(06122) 서울 강남구 논현로113길 13 1층","tel":"02-549-9536","open":"09:30 ~ 21:00","sido":"seoul","sigungu":"kangnam_gu","lng":"127.032076212723","lat":"37.5082845937128"},{"name":"유한약국","addr":"(06118) 서울 강남구 논현로115길 71 스페이스모노빌딩 101호","tel":"02-546-0532","open":"08:30 ~ 21:00","sido":"seoul","sigungu":"kangnam_gu","lng":"127.027203108252","lat":"37.5083210457629"},{"name":"학동봄약국","addr":"(06046) 서울 강남구 논현로131길 23 1층","tel":"02-511-7474","open":"09:00 ~ 19:00","sido":"seoul","sigungu":"kangnam_gu","lng":"127.028552633603","lat":"37.5139370480622"},{"name":"미소온누리약국","addr":"(06024) 서울 강남구 논현로168길 40 103호","tel":"02-516-8999","open":"08:00 ~ 19:00","sido":"seoul","sigungu":"kangnam_gu","lng":"127.031327551361","lat":"37.523075310859"},{"name":"한양약국","addr":"(06022) 서울 강남구 논현로176길 14 압구정증권빌딩 3층","tel":"02-514-5665","open":"08:30 ~ 18:00","sido":"seoul","sigungu":"kangnam_gu","lng":"127.029718326693","lat":"37.5269934647885"},{"name":"강남미소약국","addr":"(06223) 서울 강남구 논현로86길 22 1층","tel":"02-555-5640","open":"09:00 ~ 19:30","sido":"seoul","sigungu":"kangnam_gu","lng":"127.039354751434","lat":"37.5000311654295"},{"name":"메디칼희민약국","addr":"(06174) 서울 강남구 대치동 1001-6 1층","tel":"02-558-6731","open":"09:00 ~ 19:00","sido":"seoul","sigungu":"kangnam_gu","lng":"127.064921883256","lat":"37.5077932150748"},{"name":"은혜온누리약국","addr":"(06289) 서울 강남구 대치동 500 그랑프리상가117","tel":"02-564-5674","open":"09:00 ~ 20:00","sido":"seoul","sigungu":"kangnam_gu","lng":"127.057241007924","lat":"37.4908400715786"},{"name":"메디칼청실약국","addr":"(06280) 서울 강남구 대치동 626 청실상가112,113호","tel":"02-568-3597","open":"09:00 ~ 21:00","sido":"seoul","sigungu":"kangnam_gu","lng":"127.059076463144","lat":"37.4931485396473"},{"name":"서울메디약국","addr":"(06199) 서울 강남구 대치동 908-2 1층","tel":"02-501-5063","open":"09:00 ~ 21:00","sido":"seoul","sigungu":"kangnam_gu","lng":"127.05159637937","lat":"37.5005411075968"},{"name":"동명온누리약국","addr":"(06205) 서울 강남구 대치동 922-23 서울 강남구 선릉로 64길5","tel":"02-555-1950","open":"09:00 ~ 10:00","sido":"seoul","sigungu":"kangnam_gu","lng":"127.0526592727","lat":"37.4979024024829"},{"name":"장생당약국","addr":"(06179) 서울 강남구 대치동 943-16 영광빌딩","tel":"02-558-5476","open":"09:30 ~ 22:00","sido":"seoul","sigungu":"kangnam_gu","lng":"127.058455680876","lat":"37.5071046202253"},{"name":"코코약국","addr":"(06300) 서울 강남구 도곡동 422 코코약국","tel":"02-573-6152","open":"09:00 ~ 21:00","sido":"seoul","sigungu":"kangnam_gu","lng":"127.045717888951","lat":"37.4843187316733"},{"name":"도곡메디칼약국","addr":"(06273) 서울 강남구 도곡동 540 삼호상가 103호 도곡메디칼약국","tel":"02-3462-9095","open":"08:30 ~ 18:00","sido":"seoul","sigungu":"kangnam_gu","lng":"127.046017308902","lat":"37.493569802507"},{"name":"행복한온누리약국","addr":"(06261) 서울 강남구 도곡동 544 107호 행복한온누리약국","tel":"02-578-8791","open":"09:30 ~ 21:30","sido":"seoul","sigungu":"kangnam_gu","lng":"127.039780745492","lat":"37.491688962094"},{"name":"스타약국","addr":"(06267) 서울 강남구 도곡동 957-11  스타클래스 2층 스타약국","tel":"02-3462-3030","open":"09:00 ~ 19:00","sido":"seoul","sigungu":"kangnam_gu","lng":"127.035756944152","lat":"37.4851446066305"},{"name":"정성온누리약국","addr":"(06259) 서울 강남구 도곡로 120 1층 정성온누리약국","tel":"02-554-6979","open":"08:00 ~ 22:00","sido":"seoul","sigungu":"kangnam_gu","lng":"127.033547218949","lat":"37.4898313973235"},{"name":"다솜약국","addr":"(06231) 서울 강남구 도곡로 205 1층 다솜약국","tel":"02-567-9691","open":"08:30 ~ 18:00","sido":"seoul","sigungu":"kangnam_gu","lng":"127.041364616509","lat":"37.4929198247521"},{"name":"연우약국","addr":"(06273) 서울 강남구 도곡로 242 삼호상가1층 102호/지하 104호","tel":"02-578-9436","open":"08:30 ~ 18:30","sido":"seoul","sigungu":"kangnam_gu","lng":"127.046578617159","lat":"37.4937189694991"},{"name":"연세열린약국","addr":"(06230) 서울 강남구 도곡로 255 1층","tel":"02-569-8114","open":"09:00 ~ 21:00","sido":"seoul","sigungu":"kangnam_gu","lng":"127.046081352647","lat":"37.4943719440503"},{"name":"한티하나약국","addr":"(06218) 서울 강남구 도곡로 317 201호","tel":"02-564-2143","open":"08:30 ~ 08:00","sido":"seoul","sigungu":"kangnam_gu","lng":"127.050639191063","lat":"37.4958653891477"},{"name":"정온누리약국","addr":"(06207) 서울 강남구 도곡로 409 104호","tel":"02-501-9112","open":"09:00 ~ 20:00","sido":"seoul","sigungu":"kangnam_gu","lng":"127.055167024731","lat":"37.4973692137569"},{"name":"종로약국","addr":"(06208) 서울 강남구 도곡로 419 삼정빌딩 1층 종로약국","tel":"02-508-2450","open":"09:00 ~ 21:00","sido":"seoul","sigungu":"kangnam_gu","lng":"127.056315963553","lat":"37.497655371872"},{"name":"나리약국","addr":"(06279) 서울 강남구 도곡로 442 105호 나리약국","tel":"02-565-6645","open":"08:00 ~ 19:00","sido":"seoul","sigungu":"kangnam_gu","lng":"127.058839031611","lat":"37.4979496722429"},{"name":"강남보선약국","addr":"(06282) 서울 강남구 도곡로 516 삼성상가 강남보선약국","tel":"02-568-2310","open":"10:00 ~ 22:00","sido":"seoul","sigungu":"kangnam_gu","lng":"127.062987853204","lat":"37.4991812807975"},{"name":"강남새천년온누리약국","addr":"(06190) 서울 강남구 도곡로 523 1층","tel":"02-552-3524","open":"10:00 ~ 22:30","sido":"seoul","sigungu":"kangnam_gu","lng":"127.063671536864","lat":"37.500056331752"},{"name":"트리플약국","addr":"(06038) 서울 강남구 도산대로 108 렉스타워 1층 트리플약국","tel":"02-517-5256","open":"10:00 ~ 21:30","sido":"seoul","sigungu":"kangnam_gu","lng":"127.020655869811","lat":"37.5161918332017"},{"name":"오렌지약국","addr":"(06039) 서울 강남구 도산대로 124 1층 오렌지약국","tel":"02-518-2022","open":"09:30 ~ 21:00","sido":"seoul","sigungu":"kangnam_gu","lng":"127.022285492129","lat":"37.5169129705369"},{"name":"유니팜약국","addr":"(06014) 서울 강남구 도산대로 415 1층","tel":"02-546-8707","open":"09:00 ~ 22:00","sido":"seoul","sigungu":"kangnam_gu","lng":"127.04092043531","lat":"37.5237788528603"},{"name":"케이약국","addr":"(06039) 서울 강남구 도산대로12길 6 1층","tel":"02-511-8806","open":"09:30 ~ 22:00","sido":"seoul","sigungu":"kangnam_gu","lng":"127.023467261532","lat":"37.5170904195434"},{"name":"소은약국","addr":"(06055) 서울 강남구 도산대로50길 9 논현동 청석빌딩1층","tel":"02-3443-5561","open":"09:00 ~ 22:00","sido":"seoul","sigungu":"kangnam_gu","lng":"127.037636286238","lat":"37.521746562403"},{"name":"동인프라자온누리약국","addr":"(06349) 서울 강남구 밤고개로1길 10 117-2","tel":"02-3411-3388","open":"08:30 ~ 21:00","sido":"seoul","sigungu":"kangnam_gu"},{"name":"사랑의약국","addr":"(06349) 서울 강남구 밤고개로1길 10 219","tel":"02-20040-7933","open":"09:00 ~ 19:00","sido":"seoul","sigungu":"kangnam_gu"},{"name":"수서메디칼약국","addr":"(06349) 서울 강남구 밤고개로1길 10 현대벤쳐빌210호","tel":"010-8929-7270","open":"09:00 ~ 19:30","sido":"seoul","sigungu":"kangnam_gu","lng":"127.101844450006","lat":"37.4880244867416"},{"name":"메디칼정성약국","addr":"(06378) 서울 강남구 밤고개로21길 8 107호","tel":"02-459-6772","open":"09:00 ~ 18:30","sido":"seoul","sigungu":"kangnam_gu","lng":"127.107863694133","lat":"37.4735487656314"},{"name":"서울약국","addr":"(06365) 서울 강남구 밤고개로34길 4 서울약국","tel":"02-2226-4343","open":"09:00 ~ 21:00","sido":"seoul","sigungu":"kangnam_gu","lng":"127.107288856842","lat":"37.463992360853"},{"name":"오약국","addr":"(06122) 서울 강남구 봉은사로 159 1층 오약국","tel":"02-549-7170","open":"09:00 ~ 19:00","sido":"seoul","sigungu":"kangnam_gu","lng":"127.031717671719","lat":"37.5069307504265"},{"name":"희영온누리약국","addr":"(06095) 서울 강남구 봉은사로 471 204-1호(힐스테이트2단지상가동)","tel":"02-547-1950","open":"09:00 ~ 18:30","sido":"seoul","sigungu":"kangnam_gu"},{"name":"자연애약국","addr":"(06154) 서울 강남구 봉은사로 474 쌍용플래티넘상가105호","tel":"02-567-8413","open":"09:00 ~ 21:00","sido":"seoul","sigungu":"kangnam_gu","lng":"127.052026639291","lat":"37.5123672407678"},{"name":"희병약국","addr":"(06103) 서울 강남구 봉은사로43길 8 1층","tel":"02-545-0429","open":"09:00 ~ 20:00","sido":"seoul","sigungu":"kangnam_gu","lng":"127.039950398912","lat":"37.5098022780541"},{"name":"선능약국","addr":"(06143) 서울 강남구 봉은사로54길 9 1층","tel":"02-555-8475","open":"08:30 ~ 20:00","sido":"seoul","sigungu":"kangnam_gu"},{"name":"이도건강약국","addr":"(06167) 서울 강남구 삼성동 154-11 엠타워 1층","tel":"02-564-3333","open":"09:00 ~ 19:00","sido":"seoul","sigungu":"kangnam_gu","lng":"127.057953465825","lat":"37.5096738123504"},{"name":"해오름약국","addr":"(06096) 서울 강남구 삼성동 49-7 1층","tel":"02-545-7617","open":"09:00 ~ 20:00","sido":"seoul","sigungu":"kangnam_gu","lng":"127.050686496623","lat":"37.5128158927857"},{"name":"아너힐즈약국","addr":"(06327) 서울 강남구 삼성로 11 상가 113호","tel":"02-572-0057","open":"10:00 ~ 19:30","sido":"seoul","sigungu":"kangnam_gu","lng":"127.067960222798","lat":"37.4844402093504"},{"name":"구인당온누리약국","addr":"(06288) 서울 강남구 삼성로 150 미도상가110호","tel":"02-552-5550","open":"09:00 ~ 19:00","sido":"seoul","sigungu":"kangnam_gu","lng":"127.068564672209","lat":"37.4956953356085"},{"name":"퍼스트약국","addr":"(06291) 서울 강남구 삼성로 155 퍼스트빌딩 3층 304-1호","tel":"02-565-3501","open":"09:00 ~ 19:00","sido":"seoul","sigungu":"kangnam_gu","lng":"127.062951852624","lat":"37.4938813994708"},{"name":"동성약국","addr":"(06284) 서울 강남구 삼성로 212 은마상가 A-180, 동성약국","tel":"02-566-3728","open":"09:00 ~ 21:00","sido":"seoul","sigungu":"kangnam_gu"},{"name":"은마수약국","addr":"(06284) 서울 강남구 삼성로 212 은마상가 1층 A174","tel":"02-501-2085","open":"13:30 ~ 21:00","sido":"seoul","sigungu":"kangnam_gu","lng":"127.065915414443","lat":"37.4996157705058"},{"name":"유정약국","addr":"(06279) 서울 강남구 삼성로 225 1층106호","tel":"02-568-7347","open":"08:30 ~ 19:00","sido":"seoul","sigungu":"kangnam_gu","lng":"127.061420512283","lat":"37.497188179222"},{"name":"강남메디칼약국","addr":"(06279) 서울 강남구 삼성로 233 신사빌딩1층","tel":"02-568-6644","open":"09:00 ~ 21:30","sido":"seoul","sigungu":"kangnam_gu","lng":"127.060901364297","lat":"37.4980568379199"},{"name":"프라임엠약국","addr":"(06186) 서울 강남구 삼성로 352 창진빌딩1층","tel":"02-3288-9772","open":"09:00 ~ 21:30","sido":"seoul","sigungu":"kangnam_gu","lng":"127.059072270556","lat":"37.5030433027391"},{"name":"메디칼미래약국","addr":"(06329) 서울 강남구 삼성로 38 306호 메디칼미래약국","tel":"02-445-1342","open":"09:00 ~ 19:00","sido":"seoul","sigungu":"kangnam_gu","lng":"127.066845330996","lat":"37.4886879268822"},{"name":"메디팜보문약국","addr":"(06329) 서울 강남구 삼성로 38 개포빌딩113호 메디팜보문약국","tel":"02-459-2763","open":"09:00 ~ 19:30","sido":"seoul","sigungu":"kangnam_gu","lng":"127.066845330996","lat":"37.4886879268822"},{"name":"옵티마대영약국","addr":"(06084) 서울 강남구 삼성로 642 104호","tel":"02-514-7850","open":"08:30 ~ 20:30","sido":"seoul","sigungu":"kangnam_gu","lng":"127.051322820558","lat":"37.517401366555"},{"name":"새상아약국","addr":"(06091) 서울 강남구 삼성로 651 1층 105호","tel":"02--546--3723","open":"09:00 ~ 20:00","sido":"seoul","sigungu":"kangnam_gu","lng":"127.050036535644","lat":"37.5183513056476"},{"name":"타조약국","addr":"(06068) 서울 강남구 삼성로 707 1층 약국","tel":"02-3445-0997","open":"09:00 ~ 19:00","sido":"seoul","sigungu":"kangnam_gu","lng":"127.049598360258","lat":"37.5192678106758"},{"name":"아이약국","addr":"(06074) 서울 강남구 삼성로 712 지하1층 아이약국","tel":"02-548-7028","open":"09:00 ~ 19:00","sido":"seoul","sigungu":"kangnam_gu","lng":"127.0501549801","lat":"37.5197192484557"},{"name":"삼성수약국","addr":"(06167) 서울 강남구 삼성로96길 11 1층","tel":"02-555-5505","open":"09:00 ~ 19:30","sido":"seoul","sigungu":"kangnam_gu","lng":"127.056808306719","lat":"37.5089551867803"},{"name":"도곡우리약국","addr":"(06276) 서울 강남구 선릉로 225 도곡렉슬상가 2층 214-1호","tel":"02-529-8588","open":"09:00 ~ 18:30","sido":"seoul","sigungu":"kangnam_gu","lng":"127.052720025644","lat":"37.4953648706654"},{"name":"사랑플러스약국","addr":"(06276) 서울 강남구 선릉로 225 도곡렉슬상가 313호","tel":"02-2058-2745","open":"09:00 ~ 19:30","sido":"seoul","sigungu":"kangnam_gu","lng":"127.052720025644","lat":"37.4953648706654"},{"name":"한티약국","addr":"(06276) 서울 강남구 선릉로 225 b133","tel":"02-574-2575","open":"09:00 ~ 21:00","sido":"seoul","sigungu":"kangnam_gu","lng":"127.052720025644","lat":"37.4953648706654"},{"name":"약손메디칼약국","addr":"(06275) 서울 강남구 선릉로 227 1층 약국","tel":"02-529-3010","open":"09:00 ~ 19:00","sido":"seoul","sigungu":"kangnam_gu","lng":"127.052736077626","lat":"37.4958391534271"},{"name":"개포플러스약국","addr":"(06325) 서울 강남구 선릉로 30 1층","tel":"02-579-2570","open":"09:30 ~ 20:00","sido":"seoul","sigungu":"kangnam_gu","lng":"127.0611746831","lat":"37.4825134167189"},{"name":"화일약국","addr":"(06199) 서울 강남구 선릉로 328 남서울상가1층","tel":"010-5315-2917","open":"09:00 ~ 21:00","sido":"seoul","sigungu":"kangnam_gu","lng":"127.051899209649","lat":"37.4990331412977"},{"name":"개포종로온누리약국","addr":"(06325) 서울 강남구 선릉로 42 1층 개포종로온누리약국","tel":"02-575-2485","open":"09:00 ~ 21:00","sido":"seoul","sigungu":"kangnam_gu","lng":"127.060037965137","lat":"37.4833860860284"},{"name":"한사랑약국","addr":"(06150) 서울 강남구 선릉로 513 1층 102호","tel":"02-567-7850","open":"09:00 ~ 20:00","sido":"seoul","sigungu":"kangnam_gu","lng":"127.048303636953","lat":"37.5052784555922"},{"name":"싱싱약국","addr":"(06145) 서울 강남구 선릉로 567 1층","tel":"070-8851-3202","open":"08:30 ~ 20:00","sido":"seoul","sigungu":"kangnam_gu","lng":"127.044074669741","lat":"37.5090872155202"},{"name":"삼성건강약국","addr":"(06088) 서울 강남구 선릉로 670 해운빌딩 1층 101호","tel":"02-517-3520","open":"08:30 ~ 20:00","sido":"seoul","sigungu":"kangnam_gu","lng":"127.041781105166","lat":"37.5166981999012"},{"name":"논현수약국","addr":"(06059) 서울 강남구 선릉로 705 1층 논현수약국","tel":"02-542-0325","open":"09:00 ~ 20:00","sido":"seoul","sigungu":"kangnam_gu","lng":"127.040763758142","lat":"37.5179597799721"},{"name":"굿케어약국","addr":"(06059) 서울 강남구 선릉로 719 굿케어약국(1층)","tel":"02-543-8204","open":"09:00 ~ 21:00","sido":"seoul","sigungu":"kangnam_gu","lng":"127.040404675575","lat":"37.5189157777001"},{"name":"창현약국","addr":"(06019) 서울 강남구 선릉로 815 창현약국","tel":"02-542-7658","open":"09:00 ~ 21:00","sido":"seoul","sigungu":"kangnam_gu","lng":"127.03932763326","lat":"37.5248658226122"},{"name":"로데오약국","addr":"(06018) 서울 강남구 선릉로 823 한양타운 1층 로데오약국","tel":"02-540-4091","open":"09:00 ~ 21:00","sido":"seoul","sigungu":"kangnam_gu","lng":"127.039342517747","lat":"37.5256355438421"},{"name":"갤러리아온누리약국","addr":"(06018) 서울 강남구 선릉로 843 갤러리아온누리약국","tel":"010-5222-7504","open":"09:30 ~ 20:30","sido":"seoul","sigungu":"kangnam_gu","lng":"127.040210268105","lat":"37.527215789349"},{"name":"논현약국","addr":"(06099) 서울 강남구 선릉로129길 22 1층(논현동,고영빌딩)","tel":"02-544-3922","open":"09:00 ~ 22:00","sido":"seoul","sigungu":"kangnam_gu","lng":"127.039671781477","lat":"37.5161350791784"},{"name":"수약국","addr":"(06218) 서울 강남구 선릉로69길 19 역삼래미안상가 104호 수약국","tel":"02-563-1601","open":"09:00 ~ 23:00","sido":"seoul","sigungu":"kangnam_gu","lng":"127.050691041401","lat":"37.4981263526043"},{"name":"테헤란건강약국","addr":"(06192) 서울 강남구 선릉로86길 17 102호 테헤란건강약국","tel":"02-556-4166","open":"09:00 ~ 22:00","sido":"seoul","sigungu":"kangnam_gu","lng":"127.051066236605","lat":"37.5035670052591"},{"name":"은혜약국","addr":"(06349) 서울 강남구 수서동 713 수서현대벤처빌2층 220-2호","tel":"02-6289-8767","open":"09:30 ~ 19:30","sido":"seoul","sigungu":"kangnam_gu","lng":"127.101848510057","lat":"37.4880167345764"},{"name":"세종약국","addr":"(06349) 서울 강남구 수서동 714-1 주영빌딩 1층","tel":"02-3412-0606","open":"09:00 ~ 22:00","sido":"seoul","sigungu":"kangnam_gu","lng":"127.102701194227","lat":"37.4885210111627"},{"name":"제이비미소약국","addr":"(06031) 서울 강남구 신사동 583-3 제이비미소빌딩 1층107호 제이비미국","tel":"02-543-8391","open":"08:00 ~ 21:00","sido":"seoul","sigungu":"kangnam_gu","lng":"127.02791619781","lat":"37.5240586195597"},{"name":"다현약국","addr":"(06022) 서울 강남구 신사동 612-2 제일빌딩1층2호","tel":"02-543-3188","open":"09:30 ~ 21:00","sido":"seoul","sigungu":"kangnam_gu","lng":"127.029408087372","lat":"37.5266138602054"},{"name":"하나약국","addr":"(06023) 서울 강남구 신사동 616-2 우미빌딩208호","tel":"02-2543-6650","open":"09:00 ~ 18:00","sido":"seoul","sigungu":"kangnam_gu","lng":"127.032159550723","lat":"37.528537592933"},{"name":"미성약국","addr":"(06000) 서울 강남구 압구정동 415 미성상가 101호 미성약국","tel":"02-544-8275","open":"09:30 ~ 21:00","sido":"seoul","sigungu":"kangnam_gu","lng":"127.019655574639","lat":"37.524711167316"},{"name":"가로수길약국","addr":"(06028) 서울 강남구 압구정로 108 107호","tel":"02-518-4201","open":"09:00 ~ 19:00","sido":"seoul","sigungu":"kangnam_gu","lng":"127.020600022676","lat":"37.5228889090644"},{"name":"신현대약국","addr":"(06001) 서울 강남구 압구정로 151 상가2동 109호","tel":"02-516-3777","open":"08:00 ~ 20:00","sido":"seoul","sigungu":"kangnam_gu","lng":"127.024454982256","lat":"37.5267858196588"},{"name":"명옥약국","addr":"(06022) 서울 강남구 압구정로 212 104호","tel":"02-543-3751","open":"09:00 ~ 19:00","sido":"seoul","sigungu":"kangnam_gu","lng":"127.030457751829","lat":"37.5278408488996"},{"name":"늘푸른온누리약국","addr":"(06017) 서울 강남구 압구정로 306 반도상가 1층 101호","tel":"02-516-8753","open":"09:00 ~ 20:00","sido":"seoul","sigungu":"kangnam_gu","lng":"127.034753151499","lat":"37.5288546415044"},{"name":"감마약국","addr":"(06018) 서울 강남구 압구정로 336 101호","tel":"02-547-8990","open":"09:00 ~ 22:00","sido":"seoul","sigungu":"kangnam_gu","lng":"127.038477520515","lat":"37.5280228533373"},{"name":"굿윌압구정약국","addr":"(06022) 서울 강남구 압구정로30길 12 서원빌딩 101호","tel":"02-547-7411","open":"08:00 ~ 21:00","sido":"seoul","sigungu":"kangnam_gu","lng":"127.029081289706","lat":"37.5267021492241"},{"name":"세진약국","addr":"(06023) 서울 강남구 압구정로36길 12 104호","tel":"02-545-8548","open":"08:30 ~ 20:30","sido":"seoul","sigungu":"kangnam_gu","lng":"127.031346095845","lat":"37.5276527575761"},{"name":"목화약국","addr":"(06342) 서울 강남구 양재대로55길 11 1층","tel":"010-8996-3965","open":"09:00 ~ 19:30","sido":"seoul","sigungu":"kangnam_gu","lng":"127.087667797278","lat":"37.4915323962654"},{"name":"달구약국","addr":"(06341) 서울 강남구 양재대로55길 6 수서1단지상가 113호","tel":"02-459-3300","open":"09:00 ~ 20:00","sido":"seoul","sigungu":"kangnam_gu","lng":"127.088314234699","lat":"37.4913209890296"},{"name":"상록약국","addr":"(06152) 서울 강남구 언주로 508 공무원연금공단 상록회관 지하1층","tel":"02-563-6625","open":"08:30 ~ 20:30","sido":"seoul","sigungu":"kangnam_gu","lng":"127.042909941112","lat":"37.5039660612952"},{"name":"호산나약국","addr":"(06023) 서울 강남구 언주로 871 1층","tel":"02-543-6965","open":"09:00 ~ 18:00","sido":"seoul","sigungu":"kangnam_gu","lng":"127.033354132164","lat":"37.5285677154605"},{"name":"민생약국","addr":"(06105) 서울 강남구 언주로125길 6 1층","tel":"02-547-7903","open":"09:00 ~ 21:30","sido":"seoul","sigungu":"kangnam_gu","lng":"127.03475958872","lat":"37.5132238617034"},{"name":"동현당약국","addr":"(06057) 서울 강남구 언주로146길 18 논현동동현아파트상가","tel":"02-547-8207","open":"09:00 ~ 20:00","sido":"seoul","sigungu":"kangnam_gu","lng":"127.037495479745","lat":"37.5202259846506"},{"name":"트리스약국","addr":"(06048) 서울 강남구 언주로147길 6 1층 트리스약국","tel":"02-541-4545","open":"09:00 ~ 20:00","sido":"seoul","sigungu":"kangnam_gu","lng":"127.033687796901","lat":"37.5200945044206"},{"name":"메트로약국","addr":"(06292) 서울 강남구 언주로30길 13 대림아크로빌 B동 102호","tel":"02-529-2304","open":"09:30 ~ 21:00","sido":"seoul","sigungu":"kangnam_gu","lng":"127.050686658826","lat":"37.4881276085659"},{"name":"서이약국","addr":"(06292) 서울 강남구 언주로30길 39 서이약국","tel":"02-2057-4555","open":"09:00 ~ 20:30","sido":"seoul","sigungu":"kangnam_gu","lng":"127.053214137263","lat":"37.4887462103566"},{"name":"성지프라자약국","addr":"(06132) 서울 강남구 역삼동 642-6 성지하이츠3차 지하1층 5호","tel":"02-565-5646","open":"09:00 ~ 21:00","sido":"seoul","sigungu":"kangnam_gu","lng":"127.035976882965","lat":"37.501694958815"},{"name":"강남봄약국","addr":"(06251) 서울 강남구 역삼로 118 1층","tel":"02-557-9480","open":"09:00 ~ 19:00","sido":"seoul","sigungu":"kangnam_gu","lng":"127.032179999229","lat":"37.4934315723756"},{"name":"정다운이화약국","addr":"(06216) 서울 강남구 역삼로 306 상가 407호","tel":"02-552-3375","open":"09:00 ~ 18:00","sido":"seoul","sigungu":"kangnam_gu","lng":"127.046959597261","lat":"37.4989772734253"},{"name":"한솔인유로온누리약국","addr":"(06217) 서울 강남구 역삼로 310 한솔필리아2층25호","tel":"013-453-8171","open":"09:00 ~ 20:00","sido":"seoul","sigungu":"kangnam_gu","lng":"127.048420861876","lat":"37.4992355425931"},{"name":"서울온누리약국","addr":"(06196) 서울 강남구 역삼로77길 23 1층","tel":"02-501-5063","open":"09:00 ~ 19:30","sido":"seoul","sigungu":"kangnam_gu","lng":"127.055935727133","lat":"37.503967639381"},{"name":"지영약국","addr":"(06283) 서울 강남구 영동대로 221 서림빌딩","tel":"02-554-5621","open":"09:00 ~ 21:00","sido":"seoul","sigungu":"kangnam_gu","lng":"127.068117178661","lat":"37.4986572925855"},{"name":"부활약국","addr":"(06082) 서울 강남구 영동대로112길 15 풍림상가 103호 부활약국","tel":"02-545-0164","open":"09:00 ~ 21:00","sido":"seoul","sigungu":"kangnam_gu","lng":"127.061858870437","lat":"37.5156029612101"},{"name":"일원시장약국","addr":"(06342) 서울 강남구 일원동 643-5 1층 일원시장약국","tel":"02-459-4465","open":"09:00 ~ 21:00","sido":"seoul","sigungu":"kangnam_gu","lng":"127.08679628414","lat":"37.4928744590534"},{"name":"삼성제일약국","addr":"(06342) 서울 강남구 일원동 644-4 1층","tel":"02-459-5511","open":"09:00 ~ 20:00","sido":"seoul","sigungu":"kangnam_gu","lng":"127.087756570664","lat":"37.4913460020771"},{"name":"명문약국","addr":"(06341) 서울 강남구 일원동 711-1 수서1단지아파트상가 1-101호","tel":"02-459-3312","open":"09:00 ~ 21:00","sido":"seoul","sigungu":"kangnam_gu","lng":"127.08840539456","lat":"37.4913381300871"},{"name":"샘터약국","addr":"(06356) 서울 강남구 일원로 120 샘터마을 상가 101호","tel":"02-2226-0920","open":"09:00 ~ 20:30","sido":"seoul","sigungu":"kangnam_gu","lng":"127.082672775781","lat":"37.4852019134102"},{"name":"일원정류장약국","addr":"(06356) 서울 강남구 일원로 120 102호.지하1~4호","tel":"02-445-7794","open":"09:00 ~ 20:00","sido":"seoul","sigungu":"kangnam_gu","lng":"127.082672775781","lat":"37.4852019134102"},{"name":"주민약국","addr":"(06343) 서울 강남구 일원로 33 1층","tel":"02-445-2851","open":"09:00 ~ 19:00","sido":"seoul","sigungu":"kangnam_gu","lng":"127.081055413987","lat":"37.4909138011658"},{"name":"우인온누리약국","addr":"(06343) 서울 강남구 일원로 39 우인온누리약국","tel":"02-2226-7141","open":"08:00 ~ 21:00","sido":"seoul","sigungu":"kangnam_gu","lng":"127.081311021232","lat":"37.4903393234553"},{"name":"파랑새약국","addr":"(06343) 서울 강남구 일원로 47 대청빌딩1층","tel":"02-3412-1555","open":"09:00 ~ 18:30","sido":"seoul","sigungu":"kangnam_gu","lng":"127.081577022386","lat":"37.4897602428232"},{"name":"성균관약국","addr":"(06343) 서울 강남구 일원로 49 1층 성균관약국","tel":"02-451-4578","open":"08:30 ~ 20:00","sido":"seoul","sigungu":"kangnam_gu","lng":"127.081637470451","lat":"37.4896135170541"},{"name":"e삼성약국","addr":"(06343) 서울 강남구 일원로 53 소림빌딩 1층","tel":"02-3412-1253","open":"08:30 ~ 19:00","sido":"seoul","sigungu":"kangnam_gu","lng":"127.081809638604","lat":"37.4892626357407"},{"name":"열린약국","addr":"(06351) 서울 강남구 일원로 95 1층 열린약국","tel":"02-3411-1007","open":"09:00 ~ 18:30","sido":"seoul","sigungu":"kangnam_gu","lng":"127.083524202025","lat":"37.4857363331786"},{"name":"이대학약국","addr":"(06351) 서울 강남구 일원로 95 1동105호","tel":"014-45-1558","open":"09:00 ~ 18:00","sido":"seoul","sigungu":"kangnam_gu","lng":"127.083524202025","lat":"37.4857363331786"},{"name":"참약국","addr":"(06351) 서울 강남구 일원로 95 지층 103호","tel":"02-3412-2577","open":"09:00 ~ 19:00","sido":"seoul","sigungu":"kangnam_gu","lng":"127.083524202025","lat":"37.4857363331786"},{"name":"천사약국","addr":"(06351) 서울 강남구 일원로 95 1층","tel":"02-459-3702","open":"08:30 ~ 20:30","sido":"seoul","sigungu":"kangnam_gu","lng":"127.083524202025","lat":"37.4857363331786"},{"name":"자곡온누리약국","addr":"(06373) 서울 강남구 자곡로 114 109호 자곡온누리약국","tel":"02-2226-9661","open":"08:30 ~ 19:00","sido":"seoul","sigungu":"kangnam_gu","lng":"127.096024011591","lat":"37.472056996722"},{"name":"햇빛약국","addr":"(06373) 서울 강남구 자곡로 120 107호","tel":"02-459-3353","open":"09:00 ~ 19:00","sido":"seoul","sigungu":"kangnam_gu","lng":"127.096502429368","lat":"37.4721456267663"},{"name":"더조은약국","addr":"(06374) 서울 강남구 자곡로3길 21 B202호 더조은약국","tel":"02-459-3005","open":"09:00 ~ 19:00","sido":"seoul","sigungu":"kangnam_gu","lng":"127.088116003682","lat":"37.4717696093503"},{"name":"생명샘약국","addr":"(06068) 서울 강남구 청담동 46-19 청담서울빌딩1층","tel":"02-3444-6609","open":"08:30 ~ 19:00","sido":"seoul","sigungu":"kangnam_gu","lng":"127.048313116973","lat":"37.5187588261191"},{"name":"이즈타워약국","addr":"(06134) 서울 강남구 테헤란로 101 지하103호이즈타워약국","tel":"02-501-9478","open":"10:00 ~ 20:00","sido":"seoul","sigungu":"kangnam_gu","lng":"127.028065727387","lat":"37.4986232309429"},{"name":"제이약국","addr":"(06134) 서울 강남구 테헤란로 101 지하1층","tel":"02-566-1259","open":"09:00 ~ 22:00","sido":"seoul","sigungu":"kangnam_gu","lng":"127.028065727387","lat":"37.4986232309429"},{"name":"삼주약국","addr":"(06234) 서울 강남구 테헤란로 124 삼주약국","tel":"02-565-2734","open":"09:00 ~ 20:00","sido":"seoul","sigungu":"kangnam_gu","lng":"127.031703595662","lat":"37.4987846719974"},{"name":"강남제일약국","addr":"(06132) 서울 강남구 테헤란로 139 1층 강남제일약국","tel":"02-555-7790","open":"09:00 ~ 20:00","sido":"seoul","sigungu":"kangnam_gu","lng":"127.034343239289","lat":"37.5004008797362"},{"name":"선릉타워약국","addr":"(06211) 서울 강남구 테헤란로 326 지하1층","tel":"02-508-5118","open":"08:30 ~ 19:00","sido":"seoul","sigungu":"kangnam_gu","lng":"127.047033596011","lat":"37.5035470555751"},{"name":"다온약국","addr":"(06212) 서울 강남구 테헤란로 328 4층 다온약국","tel":"02-568-5268","open":"09:00 ~ 18:30","sido":"seoul","sigungu":"kangnam_gu","lng":"127.047678791723","lat":"37.5037075363048"},{"name":"강남우리온누리약국","addr":"(06162) 서울 강남구 테헤란로 403 101호 강남우리온누리약국","tel":"055-65-7940","open":"08:30 ~ 19:30","sido":"seoul","sigungu":"kangnam_gu","lng":"127.049510713015","lat":"37.5050855011158"},{"name":"삼성일신약국","addr":"(06160) 서울 강남구 테헤란로 421 암천빌딩 1층. 삼성일신약국","tel":"02-538-1018","open":"08:30 ~ 21:00","sido":"seoul","sigungu":"kangnam_gu","lng":"127.052532174566","lat":"37.5059891656909"},{"name":"해성약국","addr":"(06178) 서울 강남구 테헤란로 504 해성빌딩 지하1층","tel":"02-528-3528","open":"09:00 ~ 18:30","sido":"seoul","sigungu":"kangnam_gu","lng":"127.057346932213","lat":"37.5066268201681"},{"name":"미소약국","addr":"(06180) 서울 강남구 테헤란로 514 5층 미소약국","tel":"070-4127-1351","open":"09:00 ~ 19:00","sido":"seoul","sigungu":"kangnam_gu","lng":"127.059755460388","lat":"37.5074267999126"},{"name":"동호약국","addr":"(06175) 서울 강남구 테헤란로114길 16 동남빌딩 1층","tel":"02-567-3935","open":"09:00 ~ 21:00","sido":"seoul","sigungu":"kangnam_gu","lng":"127.06654795913","lat":"37.50857753579"},{"name":"강남역스타약국","addr":"(06232) 서울 강남구 테헤란로4길 6 b106호 강남역스타약국","tel":"02-6326-8908","open":"09:00 ~ 21:00","sido":"seoul","sigungu":"kangnam_gu","lng":"127.029286360295","lat":"37.4976674173806"},{"name":"참좋은약국","addr":"(06169) 서울 강남구 테헤란로87길 17 마젤란21오피스텔 103호","tel":"02-508-1363","open":"09:00 ~ 21:30","sido":"seoul","sigungu":"kangnam_gu","lng":"127.058342385872","lat":"37.5087436940538"},{"name":"왕성약국","addr":"(06110) 서울 강남구 학동로 106 왕성약국","tel":"02-547-4561","open":"09:00 ~ 23:00","sido":"seoul","sigungu":"kangnam_gu","lng":"127.022549261694","lat":"37.5112240715953"},{"name":"새싹약국","addr":"(06044) 서울 강남구 학동로 121 지하1층","tel":"02-516-5357","open":"09:00 ~ 19:00","sido":"seoul","sigungu":"kangnam_gu","lng":"127.024309875094","lat":"37.5122605080308"},{"name":"학동약국","addr":"(06052) 서울 강남구 학동로 203 1층 학동약국","tel":"02-3443-8575","open":"08:30 ~ 19:30","sido":"seoul","sigungu":"kangnam_gu","lng":"127.031186730157","lat":"37.514422743867"},{"name":"르씨엘약국","addr":"(06052) 서울 강남구 학동로 215 CL타워 101호","tel":"02-540-0047","open":"08:30 ~ 22:00","sido":"seoul","sigungu":"kangnam_gu","lng":"127.03256824271","lat":"37.5148747650558"},{"name":"미네랄약국","addr":"(06099) 서울 강남구 학동로 342 308-1호","tel":"02-545-3404","open":"09:30 ~ 18:30","sido":"seoul","sigungu":"kangnam_gu"},{"name":"웰팜약국","addr":"(06099) 서울 강남구 학동로 342 sk허브블루 407-2호","tel":"02-3014-9600","open":"09:00 ~ 20:00","sido":"seoul","sigungu":"kangnam_gu","lng":"127.040841265738","lat":"37.5167560126387"},{"name":"세명약국","addr":"(06069) 서울 강남구 학동로 411 원일빌딩4층 세명약국","tel":"02-540-0054","open":"08:30 ~ 19:00","sido":"seoul","sigungu":"kangnam_gu","lng":"127.044713083924","lat":"37.5180972856452"},{"name":"가온약국","addr":"(06069) 서울 강남구 학동로 413 청담빌딩 2층 가온약국","tel":"02-545-0546","open":"09:00 ~ 19:00","sido":"seoul","sigungu":"kangnam_gu","lng":"127.045191941905","lat":"37.5181537765035"},{"name":"영진약국","addr":"(06069) 서울 강남구 학동로 421 영진약국","tel":"02-545-3121","open":"08:30 ~ 22:00","sido":"seoul","sigungu":"kangnam_gu","lng":"127.04627779299","lat":"37.5184032943507"},{"name":"청담명약국","addr":"(06084) 서울 강남구 학동로 504 1층 3호","tel":"02-512-0556","open":"08:00 ~ 19:00","sido":"seoul","sigungu":"kangnam_gu","lng":"127.051018075872","lat":"37.5187150712487"},{"name":"중외약국","addr":"(06114) 서울 강남구 학동로4길 35 106호","tel":"02-549-1771","open":"10:00 ~ 22:00","sido":"seoul","sigungu":"kangnam_gu","lng":"127.023972507853","lat":"37.5091847279371"},{"name":"청담본약국","addr":"(06072) 서울 강남구 학동로97길 20 1층","tel":"02-540-1038","open":"09:00 ~ 19:00","sido":"seoul","sigungu":"kangnam_gu","lng":"127.055518121661","lat":"37.521146560666"},{"name":"행복한수약국","addr":"(06123) 서울특별시 강남구 강남대로 446 2층","tel":"02-558-7430","open":"10:00 ~ 20:30","sido":"seoul","sigungu":"kangnam_gu","lng":"127.025947091441","lat":"37.502389199656"},{"name":"광성약국","addr":"(06114) 서울특별시 강남구 강남대로 520 1층","tel":"02-548-7304","open":"08:00 ~ 21:00","sido":"seoul","sigungu":"kangnam_gu","lng":"127.023051010941","lat":"37.5086773753858"},{"name":"새재원약국","addr":"(06267) 서울특별시 강남구 강남대로44길 28 1층","tel":"02-3463-6647","open":"13:00 ~ 22:00","sido":"seoul","sigungu":"kangnam_gu","lng":"127.035989545732","lat":"37.4863696369334"},{"name":"성모약국","addr":"(06330) 서울특별시 강남구 개포로 516 ","tel":"210-9921-4777","open":"07:30 ~ 19:00","sido":"seoul","sigungu":"kangnam_gu","lng":"127.070871480537","lat":"37.4891406792843"},{"name":"메디팜우슬초약국","addr":"(06354) 서울특별시 강남구 광평로31길 27 ","tel":"02-2226-6725","open":"09:30 ~ 19:00","sido":"seoul","sigungu":"kangnam_gu","lng":"127.089778957788","lat":"37.484837855733"},{"name":"수서약국","addr":"(06368) 서울특별시 강남구 광평로56길 11 ","tel":"02-459-2293","open":"09:00 ~ 20:00","sido":"seoul","sigungu":"kangnam_gu","lng":"127.105779703515","lat":"37.4878821836551"},{"name":"우리들약국","addr":"(06267) 서울특별시 강남구 남부순환로 2615 103호","tel":"02-577-1108","open":"08:30 ~ 20:00","sido":"seoul","sigungu":"kangnam_gu","lng":"127.035883711966","lat":"37.4851852937745"},{"name":"강남조은약국","addr":"(06268) 서울특별시 강남구 남부순환로 2633 1층","tel":"02-571-9515","open":"08:30 ~ 18:30","sido":"seoul","sigungu":"kangnam_gu","lng":"127.037772705702","lat":"37.4853675195457"},{"name":"대치참약국","addr":"(06280) 서울특별시 강남구 남부순환로 2927 대치클래시아 205호","tel":"02-501-5920","open":"09:00 ~ 19:00","sido":"seoul","sigungu":"kangnam_gu","lng":"127.060358414855","lat":"37.4936757916501"},{"name":"바른약국","addr":"(06280) 서울특별시 강남구 남부순환로 2927 대치클래시아 105호","tel":"02-568-6811","open":"09:00 ~ 22:30","sido":"seoul","sigungu":"kangnam_gu","lng":"127.060358414855","lat":"37.4936757916501"},{"name":"아름다운우리약국","addr":"(06248) 서울특별시 강남구 논현로 327 ","tel":"02-564-7582","open":"09:00 ~ 21:00","sido":"seoul","sigungu":"kangnam_gu","lng":"127.03960456549","lat":"37.4944617806227"},{"name":"마리약국","addr":"(06032) 서울특별시 강남구 논현로 819 ","tel":"070-8950-8548","open":"09:00 ~ 09:30","sido":"seoul","sigungu":"kangnam_gu","lng":"127.027875474665","lat":"37.5216320489638"},{"name":"압구정프라자약국","addr":"(06030) 서울특별시 강남구 논현로 857 1층","tel":"02-511-3801","open":"09:00 ~ 20:30","sido":"seoul","sigungu":"kangnam_gu","lng":"127.028099944398","lat":"37.5253452973989"},{"name":"녹십자옵티마약국","addr":"(06314) 서울특별시 강남구 논현로10길 24 (개포동)","tel":"02-576-2720","open":"09:30 ~ 20:00","sido":"seoul","sigungu":"kangnam_gu","lng":"127.050511735375","lat":"37.4746888657842"},{"name":"베스트약국","addr":"(06208) 서울특별시 강남구 도곡로 423 101호 ","tel":"02-569-8964","open":"09:30 ~ 22:00","sido":"seoul","sigungu":"kangnam_gu","lng":"127.056775209344","lat":"37.4978090439394"},{"name":"정일약국","addr":"(06279) 서울특별시 강남구 도곡로 458 1층 정일약국","tel":"02-501-8071","open":"08:30 ~ 18:00","sido":"seoul","sigungu":"kangnam_gu","lng":"127.060454108584","lat":"37.4983399836131"},{"name":"대치필리아약국","addr":"(06207) 서울특별시 강남구 도곡로63길 12 ","tel":"02-508-6116","open":"09:00 ~ 22:00","sido":"seoul","sigungu":"kangnam_gu","lng":"127.054465189148","lat":"37.4978004006706"},{"name":"인터팜이화약국","addr":"(06048) 서울특별시 강남구 도산대로38길 11 ","tel":"02-541-5434","open":"09:00 ~ 18:00","sido":"seoul","sigungu":"kangnam_gu","lng":"127.032348080815","lat":"37.5200095539525"},{"name":"영지약국","addr":"(06070) 서울특별시 강남구 도산대로92길 6 1층","tel":"02-547-3443","open":"09:30 ~ 21:00","sido":"seoul","sigungu":"kangnam_gu","lng":"127.050289345616","lat":"37.524071124401"},{"name":"신삼성약국","addr":"(06096) 서울특별시 강남구 봉은사로 465 ","tel":"02-545-2467","open":"08:30 ~ 22:00","sido":"seoul","sigungu":"kangnam_gu","lng":"127.050398633345","lat":"37.5124779592224"},{"name":"은약국","addr":"(06155) 서울특별시 강남구 삼성로 549 1층","tel":"02-557-7676","open":"09:00 ~ 21:00","sido":"seoul","sigungu":"kangnam_gu","lng":"127.054270559443","lat":"37.5106008934452"},{"name":"새생명약국","addr":"(06070) 서울특별시 강남구 삼성로146길 8 101호","tel":"02-512-3389","open":"08:30 ~ 21:30","sido":"seoul","sigungu":"kangnam_gu","lng":"127.048768862226","lat":"37.5230933634866"},{"name":"사랑온누리약국","addr":"(06169) 서울특별시 강남구 삼성로92길 27 지하1층","tel":"02-555-1130","open":"09:00 ~ 20:00","sido":"seoul","sigungu":"kangnam_gu","lng":"127.058532226672","lat":"37.5083786932357"},{"name":"팜메이트수정약국","addr":"(06199) 서울특별시 강남구 선릉로 338 103호","tel":"02-562-2757","open":"10:00 ~ 21:00","sido":"seoul","sigungu":"kangnam_gu"},{"name":"우주약국","addr":"(06198) 서울특별시 강남구 선릉로 402 ","tel":"02-553-6885","open":"09:00 ~ 20:30","sido":"seoul","sigungu":"kangnam_gu","lng":"127.051008258871","lat":"37.5007996814053"},{"name":"강남온누리약국","addr":"(06198) 서울특별시 강남구 선릉로 406 ","tel":"02-566-6480","open":"08:00 ~ 21:00","sido":"seoul","sigungu":"kangnam_gu","lng":"127.050832530148","lat":"37.5011545732697"},{"name":"진선약국","addr":"(06198) 서울특별시 강남구 선릉로 424 1층","tel":"02-567-0429","open":"09:00 ~ 22:00","sido":"seoul","sigungu":"kangnam_gu","lng":"127.050065020431","lat":"37.5029101502925"},{"name":"한사랑약국","addr":"(06150) 서울특별시 강남구 선릉로 513 ","tel":"02-567-7850","open":"09:00 ~ 19:00","sido":"seoul","sigungu":"kangnam_gu","lng":"127.048303636953","lat":"37.5052784555922"},{"name":"국풍당약국","addr":"(06092) 서울특별시 강남구 선릉로 654 1층국풍당약국","tel":"02-540-4556","open":"08:30 ~ 20:30","sido":"seoul","sigungu":"kangnam_gu","lng":"127.042368837099","lat":"37.5150752829968"},{"name":"중앙약국","addr":"(06019) 서울특별시 강남구 선릉로 815 ","tel":"02-542-6354","open":"09:00 ~ 20:00","sido":"seoul","sigungu":"kangnam_gu","lng":"127.03932763326","lat":"37.5248658226122"},{"name":"압구정약국","addr":"(06018) 서울특별시 강남구 선릉로 845 ","tel":"02-543-0701","open":"09:30 ~ 21:00","sido":"seoul","sigungu":"kangnam_gu","lng":"127.040363730171","lat":"37.5275312678594"},{"name":"옵티마약국","addr":"(06030) 서울특별시 강남구 압구정로 144 (신사동, 한주빌딩 1층) ","tel":"02-516-0203","open":"09:00 ~ 21:00","sido":"seoul","sigungu":"kangnam_gu","lng":"127.024585052174","lat":"37.5249718951326"},{"name":"더블유수약국","addr":"(06017) 서울특별시 강남구 압구정로 316 1층 ","tel":"02-512-2165","open":"09:00 ~ 21:00","sido":"seoul","sigungu":"kangnam_gu","lng":"127.03602685018","lat":"37.5287140639694"},{"name":"청담와이약국","addr":"(06011) 서울특별시 강남구 압구정로 461 B104호","tel":"02-512-7262","open":"09:00 ~ 19:00","sido":"seoul","sigungu":"kangnam_gu","lng":"127.047232410937","lat":"37.5252547717564"},{"name":"도움약국","addr":"(06004) 서울특별시 강남구 압구정로29길 68 ","tel":"02-542-2333","open":"09:30 ~ 21:00","sido":"seoul","sigungu":"kangnam_gu","lng":"127.029186511113","lat":"37.5325363787069"},{"name":"건강한 온누리약국","addr":"(06023) 서울특별시 강남구 압구정로34길 11 압구정스퀘어빌딩 건강한 온누리약국","tel":"02-2268-4582","open":"09:00 ~ 19:00","sido":"seoul","sigungu":"kangnam_gu","lng":"127.030974118804","lat":"37.52737633824"},{"name":"유진약국","addr":"(06226) 서울특별시 강남구 언주로 323 ","tel":"02-562-3923","open":"\n\t\t\t\t\t\t\t\t전화 확인\n\t\t\t\t\t\t\t\t","sido":"seoul","sigungu":"kangnam_gu","lng":"127.045099200513","lat":"37.4967458451005"},{"name":"호원약국","addr":"(06143) 서울특별시 강남구 언주로108길 15 1층","tel":"02-567-5534","open":"09:00 ~ 22:30","sido":"seoul","sigungu":"kangnam_gu","lng":"127.040500419936","lat":"37.5085357286928"},{"name":"역삼약국","addr":"(06250) 서울특별시 강남구 역삼로 128 ","tel":"02-555-3877","open":"09:30 ~ 20:00","sido":"seoul","sigungu":"kangnam_gu","lng":"127.033716545778","lat":"37.4939778749218"},{"name":"두리약국","addr":"(06343) 서울특별시 강남구 일원로 35 남경빌딩 1층","tel":"02-445-3188","open":"09:00 ~ 19:00","sido":"seoul","sigungu":"kangnam_gu","lng":"127.081185718726","lat":"37.4906385440651"},{"name":"일원역약국","addr":"(06355) 서울특별시 강남구 일원로 지하 121 ","tel":"02-451-8233","open":"09:00 ~ 18:30","sido":"seoul","sigungu":"kangnam_gu","lng":"127.084451750048","lat":"37.4840735840284"},{"name":"이층n약국","addr":"(06372) 서울특별시 강남구 자곡로 201 ","tel":"02-2226-2212","open":"09:00 ~ 18:30","sido":"seoul","sigungu":"kangnam_gu","lng":"127.104713854582","lat":"37.4753775851032"},{"name":"라라약국","addr":"(06133) 서울특별시 강남구 테헤란로 125 지하1층","tel":"070-7705-7337","open":"10:00 ~ 21:00","sido":"seoul","sigungu":"kangnam_gu","lng":"127.031676800566","lat":"37.499603693833"},{"name":"온누리해림약국","addr":"(06236) 서울특별시 강남구 테헤란로 152 지하2층 6-A3호","tel":"02-2112-2911","open":"08:30 ~ 20:30","sido":"seoul","sigungu":"kangnam_gu","lng":"127.036508620542","lat":"37.5000242405515"},{"name":"샘약국","addr":"(06211) 서울특별시 강남구 테헤란로 322 1층","tel":"02-558-3347","open":"09:00 ~ 22:00","sido":"seoul","sigungu":"kangnam_gu","lng":"127.046582379785","lat":"37.5032355765545"},{"name":"허지웅약국","addr":"(06181) 서울특별시 강남구 테헤란로 532 1층 105호","tel":"02-553-0777","open":"07:30 ~ 20:00","sido":"seoul","sigungu":"kangnam_gu","lng":"127.062274636641","lat":"37.508206219332"},{"name":"온누리타워약국","addr":"(06181) 서울특별시 강남구 테헤란로 534 ","tel":"02-562-1840","open":"09:00 ~ 19:30","sido":"seoul","sigungu":"kangnam_gu","lng":"127.06279566981","lat":"37.5080381764122"},{"name":"소망약국","addr":"(06169) 서울특별시 강남구 테헤란로87길 13 ","tel":"02-555-6806","open":"09:00 ~ 20:00","sido":"seoul","sigungu":"kangnam_gu","lng":"127.058591804414","lat":"37.5086333777282"},{"name":"새휘정약국","addr":"(06077) 서울특별시 강남구 학동로101길 26 상가 102호","tel":"02-542-1910","open":"09:00 ~ 22:00","sido":"seoul","sigungu":"kangnam_gu","lng":"127.057620352182","lat":"37.5224447996482"},{"name":"강남복지약국","addr":"(06110) 서울특별시 강남구 학동로4길 8 ","tel":"02-2698-3459","open":"09:00 ~ 19:00","sido":"seoul","sigungu":"kangnam_gu","lng":"127.0228813621","lat":"37.5109176662295"}]